[{"Id":"98344ca0-6a9f-47e9-a5ae-99b1e1319db2","Population":1790658,"Location":{"type":"Point","coordinates":[21.0333,52.2167]},"Name":"Warsaw"},{"Id":"7ecc79ca-b6a3-411d-a641-6c972a35d19f","Population":766739,"Location":{"type":"Point","coordinates":[19.9372,50.0614]},"Name":"Kraków"},{"Id":"178af7fd-975c-4263-8274-d7d4463e280e","Population":690422,"Location":{"type":"Point","coordinates":[19.4547,51.7769]},"Name":"Łódź"},{"Id":"f47e4e63-78c3-41e5-a5c1-fbec0d9161f8","Population":638586,"Location":{"type":"Point","coordinates":[17.0325,51.11]},"Name":"Wrocław"},{"Id":"7b87da96-c8a0-4582-a1e9-0a3516c4eba0","Population":533830,"Location":{"type":"Point","coordinates":[16.9167,52.4]},"Name":"Poznań"},{"Id":"8d2582ec-e2b8-4ae2-a3cc-c02135ffe17a","Population":464254,"Location":{"type":"Point","coordinates":[18.6333,54.3667]},"Name":"Gdańsk"},{"Id":"e61721f6-8a73-4180-9d4b-ca66059cb19e","Population":403833,"Location":{"type":"Point","coordinates":[14.5553,53.4247]},"Name":"Szczecin"},{"Id":"2b6e5e24-2890-46b5-95f2-ee934b56df67","Population":346739,"Location":{"type":"Point","coordinates":[18.0,53.1167]},"Name":"Bydgoszcz"},{"Id":"c2d0d3d7-f453-42c5-99f6-625856061aa6","Population":339850,"Location":{"type":"Point","coordinates":[22.5667,51.2333]},"Name":"Lublin"},{"Id":"c371998c-4e61-4a24-93c9-9aa0fa3b310b","Population":297554,"Location":{"type":"Point","coordinates":[23.1667,53.1167]},"Name":"Białystok"},{"Id":"94eed76a-40bf-4279-ae02-6f53d5052811","Population":276499,"Location":{"type":"Point","coordinates":[19.0,50.25]},"Name":"Katowice"},{"Id":"d0a425fc-a3ed-4f0d-8dee-a1131b359acc","Population":247672,"Location":{"type":"Point","coordinates":[18.5319,54.5189]},"Name":"Gdynia"},{"Id":"8da543ad-c636-4bf5-b8b8-76b07e73b39e","Population":228179,"Location":{"type":"Point","coordinates":[19.1222,50.8096]},"Name":"Częstochowa"},{"Id":"f129aeaa-0076-44fc-9337-a65fc85e5de7","Population":219703,"Location":{"type":"Point","coordinates":[21.1567,51.4036]},"Name":"Radom"},{"Id":"ae5589f2-7083-4286-b27c-ea7bf9a49270","Population":201447,"Location":{"type":"Point","coordinates":[18.6167,53.0167]},"Name":"Toruń"},{"Id":"85fabac7-ca7e-48ba-8a22-3e6786822c41","Population":199974,"Location":{"type":"Point","coordinates":[19.1667,50.3]},"Name":"Sosnowiec"},{"Id":"c887a1f8-ec03-45d9-ba5a-a2587d71953b","Population":191605,"Location":{"type":"Point","coordinates":[20.6319,50.8725]},"Name":"Kielce"},{"Id":"34ff088f-6842-4aa6-923f-b7a3965501c8","Population":182548,"Location":{"type":"Point","coordinates":[22.0,50.05]},"Name":"Rzeszów"},{"Id":"840f0adf-fd2f-4df0-9608-c609b509c3b7","Population":179806,"Location":{"type":"Point","coordinates":[18.6498,50.3011]},"Name":"Gliwice"},{"Id":"43ebace5-5e45-4e37-94e5-3741288defbc","Population":174349,"Location":{"type":"Point","coordinates":[18.7833,50.3]},"Name":"Zabrze"},{"Id":"dbc3fce8-b2e7-4b1f-9860-813931f024be","Population":173599,"Location":{"type":"Point","coordinates":[20.4942,53.78]},"Name":"Olsztyn"},{"Id":"d0944ace-ee30-4ce3-bd9d-16d00b2dbe8f","Population":172781,"Location":{"type":"Point","coordinates":[19.0444,49.8225]},"Name":"Bielsko-Biała"},{"Id":"2dc52303-abac-4aaf-b8b4-64008b4d7a2e","Population":171515,"Location":{"type":"Point","coordinates":[18.923,50.347]},"Name":"Bytom"},{"Id":"836371a2-39aa-4581-a011-6032bea29874","Population":141000,"Location":{"type":"Point","coordinates":[18.5,50.0833]},"Name":"Rybnik"},{"Id":"40d8fd2c-335e-4ce5-96ed-92ea0dbeb2d4","Population":139412,"Location":{"type":"Point","coordinates":[18.8536,50.2628]},"Name":"Ruda Śląska"},{"Id":"d6f97eb1-aef9-4ffd-ba66-e38ca27b97d5","Population":139330,"Location":{"type":"Point","coordinates":[15.505,51.9397]},"Name":"Zielona Góra"},{"Id":"2dff2362-2be1-436b-b840-1db60d1d7f3e","Population":129322,"Location":{"type":"Point","coordinates":[19.0,50.1667]},"Name":"Tychy"},{"Id":"5a37603b-baa3-4db0-a874-3bcd86af91c8","Population":127792,"Location":{"type":"Point","coordinates":[17.9253,50.6722]},"Name":"Opole"},{"Id":"f3fb349c-2ccf-4371-bac4-fc6ef2df26f8","Population":123341,"Location":{"type":"Point","coordinates":[15.25,52.7333]},"Name":"Gorzów Wielkopolski"},{"Id":"e218c28e-b835-4c7b-8e3d-59da5d36516a","Population":122712,"Location":{"type":"Point","coordinates":[19.2374,50.3182]},"Name":"Dąbrowa Górnicza"},{"Id":"4a970282-2ff9-4106-bd80-3b3d1072cbff","Population":120000,"Location":{"type":"Point","coordinates":[19.7,52.55]},"Name":"Płock"},{"Id":"c24e7a50-a433-416c-af4a-bc5c31e6e1d6","Population":119317,"Location":{"type":"Point","coordinates":[19.4,54.1667]},"Name":"Elbląg"},{"Id":"76744b60-f3a1-4eba-8217-3b8223856c71","Population":116069,"Location":{"type":"Point","coordinates":[16.2833,50.7667]},"Name":"Wałbrzych"},{"Id":"578d39cc-817d-4b84-8dde-fd3f2202bb8d","Population":111536,"Location":{"type":"Point","coordinates":[18.95,50.3]},"Name":"Chorzów"},{"Id":"03db7bdd-76b5-475e-9cba-251ab83e026d","Population":110956,"Location":{"type":"Point","coordinates":[20.9883,50.0125]},"Name":"Tarnów"},{"Id":"b244afae-7650-4b61-8cc4-af83bbdff82a","Population":106880,"Location":{"type":"Point","coordinates":[16.1817,54.1903]},"Name":"Koszalin"},{"Id":"9145a5ad-a054-469d-81b4-27b3a839aa3c","Population":99761,"Location":{"type":"Point","coordinates":[18.083,51.757]},"Name":"Kalisz"},{"Id":"bb7ca33f-43dd-4b31-a7d6-553565de746c","Population":99350,"Location":{"type":"Point","coordinates":[16.1619,51.2101]},"Name":"Legnica"},{"Id":"ca666915-1db5-4d0f-9199-e303c36274ef","Population":99350,"Location":{"type":"Point","coordinates":[19.05,52.65]},"Name":"Włocławek"},{"Id":"a90ee99f-7665-4eab-b249-b2403eecbd84","Population":94368,"Location":{"type":"Point","coordinates":[18.7761,53.4925]},"Name":"Grudziądz"},{"Id":"67fad4f8-0276-49db-b8e3-3b0dc4315e08","Population":94305,"Location":{"type":"Point","coordinates":[19.275,50.2]},"Name":"Jaworzno"},{"Id":"5e4855c0-0dd9-4615-b1fe-6b4cec6273ce","Population":84306,"Location":{"type":"Point","coordinates":[15.7333,50.9]},"Name":"Jelenia Góra"},{"Id":"8fe24045-0da4-4a5b-9c84-9b9f678ab903","Population":76585,"Location":{"type":"Point","coordinates":[22.2833,52.1833]},"Name":"Siedlce"},{"Id":"c0328624-b318-47af-a191-a0bd55b1d275","Population":75183,"Location":{"type":"Point","coordinates":[19.1333,50.2333]},"Name":"Mysłowice"},{"Id":"a679be33-8d30-49e7-ac75-965b87aa4fe9","Population":74905,"Location":{"type":"Point","coordinates":[19.6833,51.4]},"Name":"Piotrków Trybunalski"},{"Id":"30c713d8-ba1d-4221-9a64-1c73c25fa2df","Population":73176,"Location":{"type":"Point","coordinates":[18.2614,52.2275]},"Name":"Konin"},{"Id":"43f969d1-aec2-4a5c-8941-75610a552ed8","Population":72561,"Location":{"type":"Point","coordinates":[18.2611,52.7958]},"Name":"Inowrocław"},{"Id":"1421e99b-1adf-40ae-a10d-c4fb5c27a4ea","Population":72001,"Location":{"type":"Point","coordinates":[21.4,50.9333]},"Name":"Ostrowiec Świętokrzyski"},{"Id":"97869b8e-7c3b-4bc8-8dae-098d5c4534ca","Population":69626,"Location":{"type":"Point","coordinates":[22.9333,54.0833]},"Name":"Suwałki"},{"Id":"07e45b0f-90ac-450f-9ca1-0195dd622d9f","Population":68217,"Location":{"type":"Point","coordinates":[17.6,52.5333]},"Name":"Gniezno"},{"Id":"492afeda-5b93-4206-a2ba-0ea901fa1460","Population":67847,"Location":{"type":"Point","coordinates":[22.7842,49.7835]},"Name":"Przemyśl"},{"Id":"0e338ccf-8b1a-4b04-8b68-ea2216c342bb","Population":66980,"Location":{"type":"Point","coordinates":[16.0803,51.6589]},"Name":"Głogów"},{"Id":"201c597c-5a2b-4316-8cb6-f319334a05d2","Population":66234,"Location":{"type":"Point","coordinates":[23.2586,50.7206]},"Name":"Zamość"},{"Id":"451b88e8-dfcb-4d51-b3fe-909eab469e95","Population":64988,"Location":{"type":"Point","coordinates":[19.35,51.6642]},"Name":"Pabianice"},{"Id":"8b076d63-efd4-454d-bb83-bceecd813e01","Population":63505,"Location":{"type":"Point","coordinates":[16.5749,51.8403]},"Name":"Leszno"},{"Id":"c312523e-9029-4c18-9d2f-5482e9345b46","Population":62700,"Location":{"type":"Point","coordinates":[22.0833,53.1833]},"Name":"Łomża"},{"Id":"e746ea7c-5b85-41b9-aca5-9cfa5f720cfb","Population":62006,"Location":{"type":"Point","coordinates":[22.35,53.8167]},"Name":"Ełk"},{"Id":"ada8efe3-276b-44fb-bae8-655ff9d3b9c8","Population":61686,"Location":{"type":"Point","coordinates":[18.8615,50.4455]},"Name":"Tarnowskie Góry"},{"Id":"988e6a10-1fdf-4660-b58e-6e9ca916104f","Population":61588,"Location":{"type":"Point","coordinates":[23.4833,51.1333]},"Name":"Chełm"},{"Id":"e93ef32f-6667-423d-a94a-dfe184cfaa27","Population":61237,"Location":{"type":"Point","coordinates":[20.8,52.1667]},"Name":"Pruszków"},{"Id":"6d010735-ce70-4e8f-84dc-eb4384527eeb","Population":60628,"Location":{"type":"Point","coordinates":[21.4333,50.2833]},"Name":"Mielec"},{"Id":"4c22b4c1-c826-489b-96c1-9f1920a2e553","Population":59025,"Location":{"type":"Point","coordinates":[19.3667,51.3667]},"Name":"Bełchatów"},{"Id":"99101817-4735-4151-a2a5-0b2752cb21e6","Population":57761,"Location":{"type":"Point","coordinates":[16.4886,50.8438]},"Name":"Świdnica"},{"Id":"35b30ac0-9e9d-4941-874f-1c0b54489fb3","Population":57498,"Location":{"type":"Point","coordinates":[23.1167,52.0333]},"Name":"Biała Podlaska"},{"Id":"00d03c23-4994-4702-bcd6-2c95530d1b7e","Population":56354,"Location":{"type":"Point","coordinates":[19.1333,50.325]},"Name":"Będzin"},{"Id":"1dbc0f59-06dd-4fb2-8091-15325c86ff94","Population":53886,"Location":{"type":"Point","coordinates":[20.9266,52.4015]},"Name":"Legionowo"},{"Id":"ef813b20-8d8b-48d3-984d-100fda5efdc0","Population":52900,"Location":{"type":"Point","coordinates":[21.5667,53.0833]},"Name":"Ostrołęka"},{"Id":"fc1ef39b-7785-47c8-8117-06f6598cd56d","Population":49839,"Location":{"type":"Point","coordinates":[21.9694,51.4166]},"Name":"Puławy"},{"Id":"b1824c7e-a7b7-4a83-b4a9-85cf265f5214","Population":48690,"Location":{"type":"Point","coordinates":[18.5333,53.9667]},"Name":"Starogard Gdański"},{"Id":"9e88ea31-878c-4e0c-9c65-302bb450141a","Population":47837,"Location":{"type":"Point","coordinates":[20.1417,51.9528]},"Name":"Skierniewice"},{"Id":"5dd507ad-f65b-46e1-8adf-1d0798cacd74","Population":47816,"Location":{"type":"Point","coordinates":[21.6833,50.5833]},"Name":"Tarnobrzeg"},{"Id":"cea3c694-1c13-4570-a3a6-d13ceb659710","Population":47638,"Location":{"type":"Point","coordinates":[21.0667,51.05]},"Name":"Starachowice"},{"Id":"6e8c6513-cf65-43bf-b44a-30731f09af38","Population":47557,"Location":{"type":"Point","coordinates":[19.3667,52.2333]},"Name":"Kutno"},{"Id":"f9fe85a0-9868-4bcd-ae33-f73f847048e3","Population":47148,"Location":{"type":"Point","coordinates":[18.4,54.5667]},"Name":"Rumia"},{"Id":"fc045a6b-13c8-47c2-b935-f766e4e766fe","Population":46841,"Location":{"type":"Point","coordinates":[17.3344,50.4738]},"Name":"Nysa"},{"Id":"cc3573f2-6c0e-4f67-ac0d-6478bd3acd93","Population":46716,"Location":{"type":"Point","coordinates":[15.5667,54.1667]},"Name":"Kołobrzeg"},{"Id":"fe95a686-3cb1-473a-93c8-5b147c4c5888","Population":43924,"Location":{"type":"Point","coordinates":[21.4114,50.0515]},"Name":"Dębica"},{"Id":"5978d7f1-d35e-40c4-b826-0973e33f504d","Population":42965,"Location":{"type":"Point","coordinates":[20.6106,52.8817]},"Name":"Ciechanów"},{"Id":"a824f535-ce27-4907-844b-92c74d275a2b","Population":42797,"Location":{"type":"Point","coordinates":[22.7,51.2333]},"Name":"Świdnik"},{"Id":"d9a9c268-06d1-421a-8dae-acd9992d049e","Population":42765,"Location":{"type":"Point","coordinates":[21.2667,52.1167]},"Name":"Otwock"},{"Id":"f38c44cf-a0c5-452e-a1e1-dff0efbd3995","Population":42120,"Location":{"type":"Point","coordinates":[18.75,51.6]},"Name":"Sieradz"},{"Id":"a2af0b12-65e1-4d9e-abae-2759eae60647","Population":42053,"Location":{"type":"Point","coordinates":[18.9041,50.171]},"Name":"Mikołów"},{"Id":"53724909-5a65-4ee1-bf39-9571217a8c9a","Population":41479,"Location":{"type":"Point","coordinates":[14.25,53.9167]},"Name":"Świnoujście"},{"Id":"a02bf103-ad7a-417f-b02d-e2d21a70c050","Population":40008,"Location":{"type":"Point","coordinates":[18.9308,53.7358]},"Name":"Kwidzyn"},{"Id":"1be788eb-948f-463c-a276-61d58c91c955","Population":39937,"Location":{"type":"Point","coordinates":[17.557,53.6955]},"Name":"Chojnice"},{"Id":"1e4e8b07-6a1a-4d7a-af1f-661bef8a90bb","Population":39721,"Location":{"type":"Point","coordinates":[15.7167,51.8]},"Name":"Nowa Sól"},{"Id":"991e5577-5413-4182-b2cd-f44d726849a2","Population":39412,"Location":{"type":"Point","coordinates":[15.5667,51.2667]},"Name":"Bolesławiec"},{"Id":"2ae5cdde-3c0d-44a0-93aa-f761a05317c3","Population":39057,"Location":{"type":"Point","coordinates":[19.2333,50.0333]},"Name":"Oświęcim"},{"Id":"5d575d49-3ee2-4aff-96f7-e7fa13d6bc0c","Population":38895,"Location":{"type":"Point","coordinates":[19.0444,54.0285]},"Name":"Malbork"},{"Id":"56681414-ad72-4e69-9f11-85a214b087be","Population":37502,"Location":{"type":"Point","coordinates":[15.1333,51.6333]},"Name":"Żary"},{"Id":"acd74220-c644-4bbd-95e0-19bbd67ebe7c","Population":37479,"Location":{"type":"Point","coordinates":[22.6778,50.0162]},"Name":"Jarosław"},{"Id":"9c4da4e6-d7da-4d2b-868b-de01b9337001","Population":37457,"Location":{"type":"Point","coordinates":[18.5478,54.4419]},"Name":"Sopot"},{"Id":"133edd55-ea2f-4355-831d-86f2a0a2b68a","Population":36575,"Location":{"type":"Point","coordinates":[19.4,50.1333]},"Name":"Chrzanów"},{"Id":"50fac390-85f1-4d8b-94ed-4df5f58de6ed","Population":35890,"Location":{"type":"Point","coordinates":[17.4833,50.8667]},"Name":"Brzeg"},{"Id":"aded9762-60c8-4418-9a48-14b4beb478a0","Population":35445,"Location":{"type":"Point","coordinates":[21.4667,49.7333]},"Name":"Jasło"},{"Id":"07dde757-aab0-4407-81c8-7f0a2a12a8ad","Population":35374,"Location":{"type":"Point","coordinates":[17.75,54.55]},"Name":"Lębork"},{"Id":"2ea20d7b-9a1a-4fbf-b3ed-a5068b01dabb","Population":34513,"Location":{"type":"Point","coordinates":[18.6333,49.75]},"Name":"Cieszyn"},{"Id":"7b4c3412-2389-4476-a255-c72d4aec2bc0","Population":34402,"Location":{"type":"Point","coordinates":[19.0833,50.3333]},"Name":"Czeladź"},{"Id":"82975743-d32c-4623-9794-3cf43aa26728","Population":34230,"Location":{"type":"Point","coordinates":[22.2167,50.9167]},"Name":"Kraśnik"},{"Id":"1b891628-6007-4b74-8d72-7128068ce15a","Population":33545,"Location":{"type":"Point","coordinates":[20.0333,49.4833]},"Name":"Nowy Targ"}]